%time,field.header.seq,field.header.stamp,field.header.frame_id,field.utc_time,field.latitude,field.longitude,field.depth,field.altitude,field.roll,field.pitch,field.heading,field.fwd_velocity,field.stbd_velocity,field.dwn_velocity,field.fwd_ang_rate,field.stbd_ang_rate,field.dwn_ang_rate,field.sound_velocity,field.temperature,field.position_quality,field.heading_quality,field.velocity_quality,field.error,field.mode,field.heading_valid,field.altitude_valid,field.velocity_valid,field.depth_valid,field.sound_velocity_valid,field.temperature_valid,field.position_valid,field.utc_time_valid
1652282687746677747,1777,1652282687746677747,world,1652282687.737535,51.24576337169856,-2.423146851360798,13.054,0.0,-1.3034999999999999,-3.377,207.9825,-0.029,-0.01,-0.012,0.0,-0.27499999999999997,0.011,1449.3899999999999,13.75,0.48625704646110535,0.125,0.02,0,1,1,0,1,1,1,1,1,1
1652282687766678358,1778,1652282687766678358,world,1652282687.757534,51.24576337169856,-2.423146851360798,13.053,0.0,-1.2925,-3.3825,207.9825,-0.028,-0.011,-0.012,0.6819999999999999,0.264,-0.088,1449.3899999999999,13.75,0.48625704646110535,0.125,0.02,0,1,1,0,1,1,0,1,1,1
1652282687786676785,1779,1652282687786676785,world,1652282687.777535,51.24576337169856,-2.423146851360798,13.053,0.0,-1.2925,-3.377,207.9825,-0.028,-0.007,-0.012,0.0,0.308,-0.09899999999999999,1449.3899999999999,13.75,0.48625704646110535,0.125,0.02,0,1,1,0,1,1,0,1,1,1
1652282687806674181,1780,1652282687806674181,world,1652282687.797534,51.24576337169856,-2.423146851360798,13.053,0.0,-1.3034999999999999,-3.3825,207.9825,-0.029,-0.008,-0.012,-0.264,-0.374,-0.011,1449.3899999999999,13.75,0.48625704646110535,0.125,0.02,0,1,1,0,1,1,0,1,1,1
1652282687826677620,1781,1652282687826677620,world,1652282687.817535,51.24576337169856,-2.423146851360798,13.053,0.0,-1.2979999999999998,-3.388,207.988,-0.029,-0.012,-0.013000000000000001,0.737,-0.23099999999999998,0.011,1449.3899999999999,13.75,0.48625704646110535,0.125,0.02,0,1,1,0,1,1,0,1,1,1
1652282687851677284,1782,1652282687851677284,world,1652282687.837533,51.24576337169856,-2.423146851360798,13.052,0.0,-1.2925,-3.3825,207.9825,-0.028,-0.009000000000000001,-0.013000000000000001,-0.45099999999999996,0.187,0.088,1449.3899999999999,13.75,0.48625704646110535,0.125,0.02,0,1,1,0,1,1,0,1,1,1
1652282687866681101,1783,1652282687866681101,world,1652282687.857535,51.24576337169856,-2.423146767541766,13.052,0.0,-1.2979999999999998,-3.377,207.9825,-0.029,-0.007,-0.012,-0.6599999999999999,-0.09899999999999999,0.066,1449.3899999999999,13.75,0.48625704646110535,0.125,0.02,0,1,1,0,1,1,0,1,1,1
1652282687916677022,1784,1652282687916677022,world,1652282687.877534,51.245763413608074,-2.423146767541766,13.052,0.0,-1.2979999999999998,-3.388,207.9825,-0.029,-0.01,-0.013000000000000001,-0.044,-0.286,0.011,1449.3899999999999,13.75,0.48625704646110535,0.125,0.02,0,1,1,0,1,1,0,1,1,1
1652282687921682862,1785,1652282687921682862,world,1652282687.8975348,51.245763413608074,-2.423146767541766,13.051,0.0,-1.287,-3.388,207.9825,-0.028,-0.011,-0.014,0.9019999999999999,0.495,-0.066,1449.3899999999999,13.75,0.48625704646110535,0.125,0.02,0,1,1,0,1,1,0,1,1,1
1652282687926674009,1786,1652282687926674009,world,1652282687.917533,51.245763413608074,-2.423146767541766,13.051,0.0,-1.2925,-3.377,207.9825,-0.028,-0.008,-0.013000000000000001,0.05499999999999999,0.429,-0.09899999999999999,1449.3899999999999,13.75,0.48625704646110535,0.125,0.02,0,1,1,0,1,1,0,1,1,1
1652282687951676723,1787,1652282687951676723,world,1652282687.9375348,51.245763413608074,-2.423146767541766,13.051,0.0,-1.2979999999999998,-3.3825,207.9825,-0.029,-0.007,-0.012,-0.407,-0.46199999999999997,0.0,1449.3899999999999,13.75,0.48625704646110535,0.125,0.02,0,1,1,0,1,1,0,1,1,1
1652282687966676674,1788,1652282687966676674,world,1652282687.9575338,51.245763413608074,-2.423146767541766,13.05,0.0,-1.2979999999999998,-3.388,207.988,-0.029,-0.011,-0.013000000000000001,0.46199999999999997,-0.286,0.011,1449.3899999999999,13.75,0.48625704646110535,0.125,0.02,0,1,1,0,1,1,0,1,1,1
1652282687991676943,1789,1652282687991676943,world,1652282687.977535,51.245763413608074,-2.423146767541766,13.05,0.0,-1.287,-3.3825,207.9825,-0.028,-0.009000000000000001,-0.014,-0.407,0.484,0.066,1449.3899999999999,13.75,0.48625704646110535,0.125,0.02,0,1,1,0,1,1,0,1,1,1
1652282688011680642,1790,1652282688011680642,world,1652282687.997534,51.245763413608074,-2.423146767541766,13.05,0.0,-1.2925,-3.3714999999999997,207.9825,-0.029,-0.007,-0.013000000000000001,-0.6819999999999999,0.088,0.077,1449.3899999999999,13.75,0.48625704646110535,0.125,0.02,0,1,1,0,1,1,0,1,1,1
1652282688026683168,1791,1652282688026683168,world,1652282688.017534,51.245763413608074,-2.423146767541766,13.05,0.0,-1.2979999999999998,-3.3825,207.9825,-0.029,-0.01,-0.012,0.033,-0.429,-0.011,1449.3899999999999,13.75,0.48625704646110535,0.125,0.02,0,1,1,0,1,1,0,1,1,1
1652282688046682217,1792,1652282688046682217,world,1652282688.037534,51.245763413608074,-2.423146767541766,13.049,0.0,-1.287,-3.388,207.9825,-0.027,-0.011,-0.013000000000000001,1.045,0.187,-0.077,1449.3899999999999,13.75,0.48625704646110535,0.125,0.02,0,1,1,0,1,1,0,1,1,1
1652282688066681502,1793,1652282688066681502,world,1652282688.057535,51.245763413608074,-2.423146767541766,13.049,0.0,-1.2925,-3.377,207.9825,-0.027,-0.008,-0.013000000000000001,0.0,0.46199999999999997,-0.033,1449.3899999999999,13.75,0.48625704646110535,0.125,0.02,0,1,1,0,1,1,0,1,1,1
1652282688091681268,1794,1652282688091681268,world,1652282688.077534,51.245763413608074,-2.423146767541766,13.049,0.0,-1.2979999999999998,-3.3825,207.988,-0.028,-0.007,-0.012,-0.572,-0.45099999999999996,0.044,1449.3899999999999,13.75,0.48625704646110535,0.125,0.02,0,1,1,0,1,1,0,1,1,1
1652282688106695392,1795,1652282688106695392,world,1652282688.097535,51.245763413608074,-2.423146767541766,13.048,0.0,-1.2979999999999998,-3.388,207.988,-0.028,-0.012,-0.013000000000000001,0.253,-0.473,0.05499999999999999,1449.3899999999999,13.75,0.48625704646110535,0.125,0.02,0,1,1,0,1,1,0,1,1,1
1652282688126711126,1796,1652282688126711126,world,1652282688.117534,51.24576345551759,-2.4231466837227345,13.048,0.0,-1.287,-3.388,207.988,-0.027,-0.011,-0.014,-0.187,0.253,0.066,1449.3899999999999,13.75,0.48625704646110535,0.125,0.02,0,1,1,0,1,1,0,1,1,1
1652282688146701927,1797,1652282688146701927,world,1652282688.1375349,51.24576345551759,-2.4231466837227345,13.048,0.0,-1.2979999999999998,-3.377,207.988,-0.028,-0.008,-0.014,-0.638,0.34099999999999997,0.044,1449.3899999999999,13.75,0.48625704646110535,0.125,0.02,0,1,1,0,1,1,0,1,1,1
1652282688166702757,1798,1652282688166702757,world,1652282688.157534,51.24576345551759,-2.4231466837227345,13.047,0.0,-1.2979999999999998,-3.3825,207.988,-0.029,-0.01,-0.014,-0.033,-0.176,-0.022,1449.3899999999999,13.75,0.48625704646110535,0.125,0.02,0,1,1,0,1,1,0,1,1,1
1652282688186712086,1799,1652282688186712086,world,1652282688.177536,51.24576345551759,-2.4231466837227345,13.047,0.0,-1.2925,-3.3825,207.9825,-0.027,-0.012,-0.013000000000000001,0.9349999999999999,0.27499999999999997,-0.132,1449.3899999999999,13.75,0.48625704646110535,0.125,0.02,0,1,1,0,1,1,0,1,1,1
1652282688206696836,1800,1652282688206696836,world,1652282688.197533,51.24576345551759,-2.4231466837227345,13.047,0.0,-1.2925,-3.377,207.9825,-0.028,-0.009000000000000001,-0.014,0.242,0.286,-0.154,1449.3899999999999,13.75,0.48625704646110535,0.125,0.02,0,1,1,0,1,1,0,1,1,1
1652282688226689863,1801,1652282688226689863,world,1652282688.217535,51.24576345551759,-2.4231466837227345,13.047,0.0,-1.3034999999999999,-3.3825,207.9825,-0.029,-0.007,-0.014,-0.8029999999999999,-0.418,0.0,1449.3899999999999,13.75,0.48625704646110535,0.125,0.02,0,1,1,0,1,1,0,1,1,1
1652282688251695884,1802,1652282688251695884,world,1652282688.2375338,51.24576345551759,-2.4231466837227345,13.046000000000001,0.0,-1.3034999999999999,-3.3825,207.9825,-0.028,-0.012,-0.014,0.154,-0.176,0.0,1449.3899999999999,13.75,0.48625704646110535,0.125,0.02,0,1,1,0,1,1,0,1,1,1
1652282688266700523,1803,1652282688266700523,world,1652282688.257536,51.24576345551759,-2.4231466837227345,13.046000000000001,0.0,-1.2925,-3.377,207.9825,-0.027,-0.01,-0.015,-0.429,0.506,0.05499999999999999,1449.3899999999999,13.75,0.48625704646110535,0.125,0.02,0,1,1,0,1,1,0,1,1,1
1652282688291692452,1804,1652282688291692452,world,1652282688.277534,51.24576345551759,-2.4231466837227345,13.046000000000001,0.0,-1.3034999999999999,-3.3714999999999997,207.9825,-0.029,-0.007,-0.014,-0.352,0.044,0.05499999999999999,1449.3899999999999,13.75,0.48625704646110535,0.125,0.02,0,1,1,0,1,1,0,1,1,1
1652282688311702878,1805,1652282688311702878,world,1652282688.297535,51.245763706974685,-2.4231464322656393,13.06,0.0,-1.309,-3.377,207.9825,-0.032,-0.01,-0.011,0.088,-0.308,0.011,1449.3899999999999,13.75,0.48625704646110535,0.125,0.02,0,1,1,0,1,1,0,1,1,1
1652282688351701643,1806,1652282688351701643,world,1652282688.317534,51.245763706974685,-2.4231464322656393,13.059000000000001,0.0,-1.3034999999999999,-3.3825,207.9825,-0.031,-0.012,-0.013000000000000001,0.869,0.418,-0.022,1449.3899999999999,13.75,0.48625704646110535,0.125,0.02,0,1,1,0,1,1,0,1,1,1
1652282688356690176,1807,1652282688356690176,world,1652282688.337535,51.245763706974685,-2.4231464322656393,13.059000000000001,0.0,-1.3034999999999999,-3.3659999999999997,207.9825,-0.031,-0.009000000000000001,-0.012,-0.19799999999999998,0.583,0.0,1449.3899999999999,13.75,0.4854747951030731,0.125,0.02,0,1,1,0,1,1,0,1,1,1
1652282688371720222,1808,1652282688371720222,world,1652282688.357534,51.245763706974685,-2.4231464322656393,13.059000000000001,0.0,-1.3145,-3.3714999999999997,207.988,-0.032,-0.009000000000000001,-0.011,-0.605,-0.616,0.044,1449.3899999999999,13.75,0.4854747951030731,0.125,0.02,0,1,1,0,1,1,0,1,1,1
1652282688386689004,1809,1652282688386689004,world,1652282688.3775349,51.245763706974685,-2.4231464322656393,13.059000000000001,0.0,-1.3145,-3.377,207.988,-0.031,-0.012,-0.011,0.121,-0.627,0.011,1449.3899999999999,13.75,0.4854747951030731,0.125,0.02,0,1,1,0,1,1,0,1,1,1
1652282688406682430,1810,1652282688406682430,world,1652282688.397534,51.245763706974685,-2.4231464322656393,13.058,0.0,-1.309,-3.377,207.988,-0.031,-0.011,-0.013000000000000001,-0.429,0.484,0.033,1449.3899999999999,13.75,0.4854747951030731,0.125,0.02,0,1,1,0,1,1,0,1,1,1
1652282688426687845,1811,1652282688426687845,world,1652282688.4175348,51.245763706974685,-2.4231464322656393,13.058,0.0,-1.3145,-3.3659999999999997,207.9825,-0.031,-0.009000000000000001,-0.013000000000000001,-0.297,0.528,0.022,1449.3899999999999,13.75,0.4854747951030731,0.125,0.02,0,1,1,0,1,1,0,1,1,1
1652282688451681437,1812,1652282688451681437,world,1652282688.4375339,51.245763706974685,-2.4231464322656393,13.058,0.0,-1.3199999999999998,-3.3659999999999997,207.9825,-0.032,-0.01,-0.012,0.242,-0.154,0.0,1449.3899999999999,13.75,0.4854747951030731,0.125,0.02,0,1,1,0,1,1,0,1,1,1
1652282688471712998,1813,1652282688471712998,world,1652282688.457535,51.245763706974685,-2.4231463484466076,13.057,0.0,-1.3145,-3.3714999999999997,207.9825,-0.031,-0.012,-0.012,0.869,0.088,-0.077,1449.3899999999999,13.75,0.4854747951030731,0.125,0.02,0,1,1,0,1,1,0,1,1,1
1652282688491682052,1814,1652282688491682052,world,1652282688.4775329,51.2457637488842,-2.4231463484466076,13.057,0.0,-1.3145,-3.3659999999999997,207.9825,-0.031,-0.009000000000000001,-0.012,-0.264,0.34099999999999997,-0.05499999999999999,1449.3899999999999,13.75,0.4854747951030731,0.125,0.02,0,1,1,0,1,1,0,1,1,1
1652282688511681915,1815,1652282688511681915,world,1652282688.497536,51.2457637488842,-2.4231463484466076,13.057,0.0,-1.3255,-3.3659999999999997,207.9825,-0.032,-0.009000000000000001,-0.012,-0.429,-0.418,-0.022,1449.3899999999999,13.75,0.4854747951030731,0.125,0.02,0,1,1,0,1,1,0,1,1,1
1652282688531749687,1816,1652282688531749687,world,1652282688.517534,51.2457637488842,-2.4231463484466076,13.057,0.0,-1.3199999999999998,-3.3714999999999997,207.9825,-0.031,-0.011,-0.012,-0.19799999999999998,-0.352,-0.011,1449.3899999999999,13.75,0.4854747951030731,0.125,0.02,0,1,1,0,1,1,0,1,1,1
1652282688546680977,1817,1652282688546680977,world,1652282688.537535,51.2457637488842,-2.4231463484466076,13.056000000000001,0.0,-1.3145,-3.3659999999999997,207.9825,-0.03,-0.01,-0.013000000000000001,-0.23099999999999998,0.429,0.0,1449.3899999999999,13.75,0.4854747951030731,0.125,0.02,0,1,1,0,1,1,0,1,1,1
1652282688566688455,1818,1652282688566688455,world,1652282688.557534,51.2457637488842,-2.4231463484466076,13.056000000000001,0.0,-1.3199999999999998,-3.3604999999999996,207.9825,-0.031,-0.008,-0.012,-0.27499999999999997,0.264,0.05499999999999999,1449.3899999999999,13.75,0.4854747951030731,0.125,0.02,0,1,1,0,1,1,0,1,1,1
1652282688586689230,1819,1652282688586689230,world,1652282688.577535,51.2457637488842,-2.4231463484466076,13.056000000000001,0.0,-1.3255,-3.3659999999999997,207.9825,-0.031,-0.01,-0.011,0.484,-0.38499999999999995,0.05499999999999999,1449.3899999999999,13.75,0.4854747951030731,0.125,0.02,0,1,1,0,1,1,0,1,1,1
1652282688606684119,1820,1652282688606684119,world,1652282688.597534,51.2457637488842,-2.4231463484466076,13.055,0.0,-1.3145,-3.3714999999999997,207.988,-0.03,-0.012,-0.012,0.99,0.143,0.011,1449.3899999999999,13.75,0.4854747951030731,0.125,0.02,0,1,1,0,1,1,0,1,1,1
1652282688626736131,1821,1652282688626736131,world,1652282688.6175349,51.2457637488842,-2.4231463484466076,13.055,0.0,-1.3145,-3.3604999999999996,207.988,-0.03,-0.009000000000000001,-0.013000000000000001,-0.319,0.32999999999999996,0.0,1449.3899999999999,13.75,0.4854747951030731,0.125,0.02,0,1,1,0,1,1,0,1,1,1
1652282688646695516,1822,1652282688646695516,world,1652282688.637534,51.2457637488842,-2.4231463484466076,13.055,0.0,-1.3255,-3.3659999999999997,207.988,-0.031,-0.008,-0.012,-0.495,-0.484,0.0,1449.3899999999999,13.75,0.4854747951030731,0.125,0.02,0,1,1,0,1,1,0,1,1,1
1652282688666716980,1823,1652282688666716980,world,1652282688.6575348,51.2457637488842,-2.4231463484466076,13.055,0.0,-1.3255,-3.3714999999999997,207.988,-0.031,-0.011,-0.013000000000000001,-0.286,-0.363,0.0,1449.3899999999999,13.75,0.4854747951030731,0.125,0.02,0,1,1,0,1,1,0,1,1,1
1652282688686696296,1824,1652282688686696296,world,1652282688.6775339,51.24576379079372,-2.4231463484466076,13.054,0.0,-1.3145,-3.3659999999999997,207.9825,-0.03,-0.011,-0.013000000000000001,-0.143,0.473,-0.011,1449.3899999999999,13.75,0.4854747951030731,0.125,0.02,0,1,1,0,1,1,0,1,1,1
1652282688711751246,1825,1652282688711751246,world,1652282688.697535,51.24576379079372,-2.423146264627576,13.054,0.0,-1.3199999999999998,-3.3604999999999996,207.9825,-0.031,-0.008,-0.012,0.011,0.121,0.0,1449.3899999999999,13.75,0.4854747951030731,0.125,0.02,0,1,1,0,1,1,0,1,1,1
1652282688726703169,1826,1652282688726703169,world,1652282688.7175338,51.24576379079372,-2.423146264627576,13.054,0.0,-1.3199999999999998,-3.3714999999999997,207.9825,-0.031,-0.01,-0.012,0.473,-0.308,0.022,1449.3899999999999,13.75,0.4854747951030731,0.125,0.02,0,1,1,0,1,1,0,1,1,1
1652282688751689152,1827,1652282688751689152,world,1652282688.737536,51.24576379079372,-2.423146264627576,13.053,0.0,-1.3145,-3.3714999999999997,207.9825,-0.03,-0.011,-0.013000000000000001,0.9239999999999999,0.19799999999999998,-0.022,1449.3899999999999,13.75,0.4854747951030731,0.125,0.02,0,1,1,0,1,1,0,1,1,1
1652282688771731411,1828,1652282688771731411,world,1652282688.757534,51.24576379079372,-2.423146264627576,13.053,0.0,-1.3145,-3.3604999999999996,207.9825,-0.03,-0.009000000000000001,-0.013000000000000001,-0.363,0.308,-0.022,1449.3899999999999,13.75,0.4854747951030731,0.125,0.02,0,1,1,0,1,1,1,1,1,1
1652282688791687980,1829,1652282688791687980,world,1652282688.777536,51.24576379079372,-2.423146264627576,13.053,0.0,-1.3199999999999998,-3.3659999999999997,207.9825,-0.031,-0.008,-0.012,-0.5499999999999999,-0.693,0.0,1449.3899999999999,13.75,0.4854747951030731,0.125,0.02,0,1,1,0,1,1,0,1,1,1
1652282688811749049,1830,1652282688811749049,world,1652282688.797535,51.24576379079372,-2.423146264627576,13.052,0.0,-1.3199999999999998,-3.377,207.9825,-0.03,-0.011,-0.012,-0.19799999999999998,-0.363,0.0,1449.3899999999999,13.75,0.4854747951030731,0.125,0.02,0,1,1,0,1,1,0,1,1,1
1652282688826714176,1831,1652282688826714176,world,1652282688.8175359,51.24576379079372,-2.423146264627576,13.052,0.0,-1.309,-3.3714999999999997,207.9825,-0.029,-0.011,-0.013000000000000001,-0.077,0.605,-0.011,1449.3899999999999,13.75,0.4854747951030731,0.125,0.02,0,1,1,0,1,1,0,1,1,1
1652282688851690340,1832,1652282688851690340,world,1652282688.837535,51.24576379079372,-2.423146264627576,13.052,0.0,-1.3145,-3.3604999999999996,207.9825,-0.03,-0.008,-0.012,-0.09899999999999999,0.16499999999999998,0.011,1449.3899999999999,13.75,0.4854747951030731,0.125,0.02,0,1,1,0,1,1,0,1,1,1
1652282688866706632,1833,1652282688866706632,world,1652282688.8575358,51.24576379079372,-2.423146264627576,13.052,0.0,-1.3199999999999998,-3.3714999999999997,207.9825,-0.03,-0.01,-0.011,0.6489999999999999,-0.528,0.022,1449.3899999999999,13.75,0.4854747951030731,0.125,0.02,0,1,1,0,1,1,0,1,1,1
1652282688891696146,1834,1652282688891696146,world,1652282688.8775349,51.24576379079372,-2.423146264627576,13.051,0.0,-1.309,-3.377,207.988,-0.03,-0.011,-0.014,0.825,0.132,0.0,1449.3899999999999,13.75,0.4854747951030731,0.125,0.02,0,1,1,0,1,1,0,1,1,1
1652282688911692636,1835,1652282688911692636,world,1652282688.897536,51.24576383270323,-2.423146264627576,13.051,0.0,-1.3145,-3.3659999999999997,207.9825,-0.029,-0.009000000000000001,-0.014,-0.407,0.5389999999999999,0.0,1449.3899999999999,13.75,0.4854747951030731,0.125,0.02,0,1,1,0,1,1,0,1,1,1
1652282688926724985,1836,1652282688926724985,world,1652282688.9175348,51.24576383270323,-2.423146264627576,13.051,0.0,-1.3199999999999998,-3.3659999999999997,207.9825,-0.03,-0.008,-0.012,-0.638,-0.5499999999999999,0.0,1449.3899999999999,13.75,0.4854747951030731,0.125,0.02,0,1,1,0,1,1,0,1,1,1
1652282688951693824,1837,1652282688951693824,world,1652282688.937536,51.24576383270323,-2.423146264627576,13.05,0.0,-1.3199999999999998,-3.377,207.9825,-0.03,-0.011,-0.013000000000000001,-0.187,-0.39599999999999996,-0.022,1449.3899999999999,13.75,0.4854747951030731,0.125,0.02,0,1,1,0,1,1,0,1,1,1
1652282688966688718,1838,1652282688966688718,world,1652282688.957535,51.24576383270323,-2.423146180808544,13.05,0.0,-1.309,-3.3714999999999997,207.9825,-0.029,-0.011,-0.014,0.05499999999999999,0.594,-0.022,1449.3899999999999,13.75,0.4854747951030731,0.125,0.02,0,1,1,0,1,1,0,1,1,1
1652282688986707734,1839,1652282688986707734,world,1652282688.977536,51.24576383270323,-2.423146180808544,13.05,0.0,-1.3145,-3.3604999999999996,207.9825,-0.03,-0.008,-0.013000000000000001,0.033,0.38499999999999995,-0.044,1449.3899999999999,13.75,0.4854747951030731,0.125,0.02,0,1,1,0,1,1,0,1,1,1
1652282689011713221,1840,1652282689011713221,world,1652282688.997535,51.24576383270323,-2.423146180808544,13.05,0.0,-1.3145,-3.3714999999999997,207.9825,-0.031,-0.009000000000000001,-0.012,0.473,-0.473,-0.011,1449.3899999999999,13.75,0.4854747951030731,0.125,0.02,0,1,1,0,1,1,0,1,1,1
1652282689026696813,1841,1652282689026696813,world,1652282689.0175369,51.24576383270323,-2.423146180808544,13.049,0.0,-1.309,-3.377,207.9825,-0.03,-0.01,-0.014,0.6599999999999999,0.066,0.0,1449.3899999999999,13.75,0.4854747951030731,0.125,0.02,0,1,1,0,1,1,0,1,1,1
1652282689051686067,1842,1652282689051686067,world,1652282689.037535,51.24576383270323,-2.423146180808544,13.049,0.0,-1.3145,-3.3659999999999997,207.9825,-0.029,-0.009000000000000001,-0.015,-0.374,0.583,0.0,1449.3899999999999,13.75,0.4854747951030731,0.125,0.02,0,1,1,0,1,1,0,1,1,1
1652282689071698031,1843,1652282689071698031,world,1652282689.057536,51.24576383270323,-2.423146180808544,13.049,0.0,-1.3145,-3.3604999999999996,207.9825,-0.03,-0.007,-0.013000000000000001,-0.6489999999999999,-0.32999999999999996,0.044,1449.3899999999999,13.75,0.4854747951030731,0.125,0.02,0,1,1,0,1,1,0,1,1,1
1652282689091682887,1844,1652282689091682887,world,1652282689.077535,51.24576383270323,-2.423146180808544,13.048,0.0,-1.3145,-3.3714999999999997,207.9825,-0.03,-0.011,-0.012,0.044,-0.748,0.0,1449.3899999999999,13.75,0.4854747951030731,0.125,0.02,0,1,1,0,1,1,0,1,1,1
1652282689111687427,1845,1652282689111687427,world,1652282689.0975358,51.24576383270323,-2.423146180808544,13.048,0.0,-1.2979999999999998,-3.377,207.9825,-0.029,-0.01,-0.013000000000000001,0.264,0.32999999999999996,-0.033,1449.3899999999999,13.75,0.4854747951030731,0.125,0.02,0,1,1,0,1,1,0,1,1,1
1652282689126714776,1846,1652282689126714776,world,1652282689.1175349,51.24576387461275,-2.423146180808544,13.048,0.0,-1.3034999999999999,-3.3714999999999997,207.9825,-0.029,-0.007,-0.014,-0.011,0.45099999999999996,-0.033,1449.3899999999999,13.75,0.4854747951030731,0.125,0.02,0,1,1,0,1,1,0,1,1,1
1652282689146689840,1847,1652282689146689840,world,1652282689.1375358,51.24576387461275,-2.423146180808544,13.047,0.0,-1.309,-3.3714999999999997,207.9825,-0.03,-0.008,-0.013000000000000001,0.132,-0.253,0.05499999999999999,1449.3899999999999,13.75,0.4854747951030731,0.125,0.02,0,1,1,0,1,1,0,1,1,1
1652282689166691696,1848,1652282689166691696,world,1652282689.1575348,51.24576387461275,-2.423146180808544,13.047,0.0,-1.309,-3.377,207.988,-0.029,-0.011,-0.013000000000000001,0.979,-0.066,0.044,1449.3899999999999,13.75,0.4854747951030731,0.125,0.02,0,1,1,0,1,1,0,1,1,1
1652282689186680777,1849,1652282689186680777,world,1652282689.177536,51.24576387461275,-2.423146180808544,13.047,0.0,-1.3034999999999999,-3.3714999999999997,207.988,-0.029,-0.009000000000000001,-0.014,-0.352,0.16499999999999998,0.066,1449.3899999999999,13.75,0.4854747951030731,0.125,0.02,0,1,1,0,1,1,0,1,1,1
1652282689206685511,1850,1652282689206685511,world,1652282689.197535,51.24576387461275,-2.4231460969895124,13.046000000000001,0.0,-1.309,-3.3714999999999997,207.988,-0.03,-0.008,-0.012,-0.693,-0.407,0.05499999999999999,1449.3899999999999,13.75,0.4854747951030731,0.125,0.02,0,1,1,0,1,1,0,1,1,1
1652282689226777219,1851,1652282689226777219,world,1652282689.217536,51.24576387461275,-2.4231460969895124,13.046000000000001,0.0,-1.309,-3.3825,207.988,-0.03,-0.011,-0.012,0.077,-0.418,-0.044,1449.3899999999999,13.75,0.4854747951030731,0.125,0.02,0,1,1,0,1,1,0,1,1,1
1652282689246681182,1852,1652282689246681182,world,1652282689.237535,51.24576387461275,-2.4231460969895124,13.046000000000001,0.0,-1.2979999999999998,-3.3825,207.9825,-0.028,-0.01,-0.014,0.187,0.5499999999999999,-0.077,1449.3899999999999,13.75,0.4854747951030731,0.125,0.02,0,1,1,0,1,1,0,1,1,1
1652282689266687820,1853,1652282689266687820,world,1652282689.257536,51.24576387461275,-2.4231460969895124,13.046000000000001,0.0,-1.3034999999999999,-3.3714999999999997,207.9825,-0.029,-0.008,-0.014,0.121,0.45099999999999996,-0.121,1449.3899999999999,13.75,0.4854747951030731,0.125,0.02,0,1,1,0,1,1,0,1,1,1
1652282689291699009,1854,1652282689291699009,world,1652282689.277535,51.24576387461275,-2.4231460969895124,13.045,0.0,-1.3034999999999999,-3.377,207.9825,-0.03,-0.009000000000000001,-0.012,0.143,-0.429,-0.022,1449.3899999999999,13.75,0.4854747951030731,0.125,0.02,0,1,1,0,1,1,0,1,1,1
1652282689321745111,1855,1652282689321745111,world,1652282689.297536,51.2457647966221,-2.4231449235230684,13.059000000000001,0.0,-1.3034999999999999,-3.3825,207.9825,-0.037,-0.013000000000000001,-0.011,0.6599999999999999,-0.23099999999999998,0.0,1449.3899999999999,13.75,0.4854747951030731,0.125,0.02,0,1,1,0,1,1,0,1,1,1
1652282689351692612,1856,1652282689351692612,world,1652282689.317535,51.2457647966221,-2.4231449235230684,13.059000000000001,0.0,-1.2979999999999998,-3.377,207.9825,-0.036000000000000004,-0.011,-0.011,-0.27499999999999997,0.297,0.011,1449.3899999999999,13.75,0.4854747951030731,0.125,0.02,0,1,1,0,1,1,0,1,1,1
1652282689356686044,1857,1652282689356686044,world,1652282689.3375359,51.2457647966221,-2.4231449235230684,13.059000000000001,0.0,-1.3034999999999999,-3.377,207.9825,-0.038,-0.009000000000000001,-0.01,-0.7919999999999999,-0.308,0.077,1449.3899999999999,13.75,0.5058974623680115,0.125,0.021,0,1,1,0,1,1,0,1,1,1
1652282689371762026,1858,1652282689371762026,world,1652282689.357535,51.2457647966221,-2.4231448397040367,13.059000000000001,0.0,-1.3034999999999999,-3.3825,207.9825,-0.037,-0.012,-0.011,-0.154,-0.23099999999999998,0.022,1449.3899999999999,13.75,0.5058974623680115,0.125,0.021,0,1,1,0,1,1,0,1,1,1
1652282689386680968,1859,1652282689386680968,world,1652282689.3775358,51.2457647966221,-2.4231448397040367,13.058,0.0,-1.2925,-3.3825,207.9825,-0.036000000000000004,-0.012,-0.012,0.43999999999999995,0.594,-0.011,1449.3899999999999,13.75,0.5058974623680115,0.125,0.021,0,1,1,0,1,1,0,1,1,1
1652282689406687596,1860,1652282689406687596,world,1652282689.3975348,51.2457647966221,-2.4231448397040367,13.058,0.0,-1.2979999999999998,-3.377,207.9825,-0.037,-0.009000000000000001,-0.011,0.011,0.308,-0.044,1449.3899999999999,13.75,0.5058974623680115,0.125,0.021,0,1,1,0,1,1,0,1,1,1
1652282689426755376,1861,1652282689426755376,world,1652282689.417536,51.2457647966221,-2.4231448397040367,13.058,0.0,-1.3034999999999999,-3.3825,207.9825,-0.038,-0.01,-0.011,0.077,-0.594,0.0,1449.3899999999999,13.75,0.5058974623680115,0.125,0.021,0,1,1,0,1,1,0,1,1,1
1652282689451683392,1862,1652282689451683392,world,1652282689.4375348,51.2457647966221,-2.4231448397040367,13.057,0.0,-1.3034999999999999,-3.388,207.988,-0.037,-0.013000000000000001,-0.012,0.374,-0.066,0.033,1449.3899999999999,13.75,0.5058974623680115,0.125,0.021,0,1,1,0,1,1,0,1,1,1
1652282689466700000,1863,1652282689466700000,world,1652282689.457536,51.24576483853161,-2.4231448397040367,13.057,0.0,-1.2979999999999998,-3.377,207.9825,-0.036000000000000004,-0.011,-0.012,-0.286,0.528,0.011,1449.3899999999999,13.75,0.5058974623680115,0.125,0.021,0,1,1,0,1,1,0,1,1,1
1652282689491693711,1864,1652282689491693711,world,1652282689.477535,51.24576483853161,-2.4231448397040367,13.057,0.0,-1.3034999999999999,-3.3714999999999997,207.9825,-0.037,-0.009000000000000001,-0.01,-0.6489999999999999,-0.34099999999999997,0.033,1449.3899999999999,13.75,0.5058974623680115,0.125,0.021,0,1,1,0,1,1,0,1,1,1
1652282689506694810,1865,1652282689506694810,world,1652282689.497537,51.24576483853161,-2.4231448397040367,13.057,0.0,-1.3034999999999999,-3.3825,207.9825,-0.037,-0.012,-0.01,-0.011,-0.418,-0.05499999999999999,1449.3899999999999,13.75,0.5058974623680115,0.125,0.021,0,1,1,0,1,1,0,1,1,1
1652282689536695685,1866,1652282689536695685,world,1652282689.517535,51.24576483853161,-2.4231448397040367,13.056000000000001,0.0,-1.2925,-3.3825,207.9825,-0.036000000000000004,-0.012,-0.012,0.5499999999999999,0.594,-0.121,1449.3899999999999,13.75,0.5058974623680115,0.125,0.021,0,1,1,0,1,1,0,1,1,1
1652282689551682416,1867,1652282689551682416,world,1652282689.537536,51.24576483853161,-2.4231448397040367,13.056000000000001,0.0,-1.2979999999999998,-3.3714999999999997,207.9825,-0.037,-0.009000000000000001,-0.013000000000000001,-0.077,0.5609999999999999,-0.121,1449.3899999999999,13.75,0.5058974623680115,0.125,0.021,0,1,1,0,1,1,0,1,1,1
1652282689566682537,1868,1652282689566682537,world,1652282689.557535,51.24576483853161,-2.4231448397040367,13.056000000000001,0.0,-1.309,-3.377,207.9825,-0.037,-0.009000000000000001,-0.011,-0.209,-0.572,-0.033,1449.3899999999999,13.75,0.5058974623680115,0.125,0.021,0,1,1,0,1,1,0,1,1,1
1652282689586680583,1869,1652282689586680583,world,1652282689.5775359,51.24576483853161,-2.423144755885005,13.056000000000001,0.0,-1.309,-3.3825,207.9825,-0.036000000000000004,-0.012,-0.012,0.187,-0.34099999999999997,0.033,1449.3899999999999,13.75,0.5058974623680115,0.125,0.021,0,1,1,0,1,1,0,1,1,1
1652282689611686327,1870,1652282689611686327,world,1652282689.597535,51.24576483853161,-2.423144755885005,13.055,0.0,-1.2979999999999998,-3.377,207.9825,-0.036000000000000004,-0.011,-0.012,-0.143,0.495,0.044,1449.3899999999999,13.75,0.5058974623680115,0.125,0.021,0,1,1,0,1,1,0,1,1,1
1652282689626700243,1871,1652282689626700243,world,1652282689.6175358,51.24576483853161,-2.423144755885005,13.055,0.0,-1.3034999999999999,-3.3714999999999997,207.9825,-0.036000000000000004,-0.009000000000000001,-0.01,-0.45099999999999996,-0.066,0.121,1449.3899999999999,13.75,0.5058974623680115,0.125,0.021,0,1,1,0,1,1,0,1,1,1
1652282689651683587,1872,1652282689651683587,world,1652282689.6375349,51.24576488044113,-2.423144755885005,13.055,0.0,-1.3034999999999999,-3.3825,207.9825,-0.037,-0.011,-0.01,0.308,-0.528,0.011,1449.3899999999999,13.75,0.5058974623680115,0.125,0.021,0,1,1,0,1,1,0,1,1,1
1652282689666682204,1873,1652282689666682204,world,1652282689.657537,51.24576488044113,-2.423144755885005,13.054,0.0,-1.2925,-3.388,207.9825,-0.035,-0.011,-0.013000000000000001,0.506,0.38499999999999995,-0.044,1449.3899999999999,13.75,0.5058974623680115,0.125,0.021,0,1,1,0,1,1,0,1,1,1
1652282689691684351,1874,1652282689691684351,world,1652282689.6775348,51.24576488044113,-2.423144755885005,13.054,0.0,-1.3034999999999999,-3.3714999999999997,207.9825,-0.036000000000000004,-0.009000000000000001,-0.013000000000000001,-0.132,0.693,-0.121,1449.3899999999999,13.75,0.5058974623680115,0.125,0.021,0,1,1,0,1,1,0,1,1,1
1652282689706683087,1875,1652282689706683087,world,1652282689.697536,51.24576488044113,-2.423144755885005,13.054,0.0,-1.309,-3.377,207.9825,-0.037,-0.009000000000000001,-0.012,-0.308,-0.45099999999999996,-0.044,1449.3899999999999,13.75,0.5058974623680115,0.125,0.021,0,1,1,0,1,1,0,1,1,1
1652282689731684969,1876,1652282689731684969,world,1652282689.717535,51.24576488044113,-2.423144755885005,13.054,0.0,-1.309,-3.3825,207.9825,-0.036000000000000004,-0.013000000000000001,-0.011,0.34099999999999997,-0.429,0.011,1449.3899999999999,13.75,0.5058974623680115,0.125,0.021,0,1,1,0,1,1,0,1,1,1
1652282689751684264,1877,1652282689751684264,world,1652282689.737537,51.24576488044113,-2.423144755885005,13.053,0.0,-1.2925,-3.377,207.9825,-0.035,-0.011,-0.011,-0.264,0.27499999999999997,0.077,1449.3899999999999,13.75,0.5058974623680115,0.125,0.021,0,1,1,0,1,1,0,1,1,1
1652282689766688792,1878,1652282689766688792,world,1652282689.757535,51.24576488044113,-2.423144755885005,13.053,0.0,-1.3034999999999999,-3.377,207.9825,-0.036000000000000004,-0.009000000000000001,-0.011,-0.319,-0.011,0.077,1449.36,13.75,0.5058974623680115,0.125,0.021,0,1,1,0,1,1,1,1,1,1
1652282689786682883,1879,1652282689786682883,world,1652282689.777536,51.24576488044113,-2.423144755885005,13.053,0.0,-1.3034999999999999,-3.3825,207.9825,-0.036000000000000004,-0.011,-0.011,0.23099999999999998,-0.27499999999999997,0.0,1449.36,13.75,0.5058974623680115,0.125,0.021,0,1,1,0,1,1,0,1,1,1
1652282689811686501,1880,1652282689811686501,world,1652282689.797536,51.24576488044113,-2.4231446720659733,13.052,0.0,-1.2925,-3.3825,207.9825,-0.035,-0.012,-0.013000000000000001,0.737,0.34099999999999997,-0.088,1449.36,13.75,0.5058974623680115,0.125,0.021,0,1,1,0,1,1,0,1,1,1
1652282689826682327,1881,1652282689826682327,world,1652282689.8175359,51.245764922350645,-2.4231446720659733,13.052,0.0,-1.2979999999999998,-3.377,207.9825,-0.036000000000000004,-0.008,-0.013000000000000001,-0.132,0.46199999999999997,-0.077,1449.36,13.75,0.5058974623680115,0.125,0.021,0,1,1,0,1,1,0,1,1,1
1652282689846681784,1882,1652282689846681784,world,1652282689.837535,51.245764922350645,-2.4231446720659733,13.052,0.0,-1.3034999999999999,-3.377,207.9825,-0.036000000000000004,-0.008,-0.012,-0.43999999999999995,-0.473,0.011,1449.36,13.75,0.5058974623680115,0.125,0.021,0,1,1,0,1,1,0,1,1,1
1652282689866684935,1883,1652282689866684935,world,1652282689.8575358,51.245764922350645,-2.4231446720659733,13.052,0.0,-1.3034999999999999,-3.3825,207.9825,-0.036000000000000004,-0.012,-0.012,0.407,-0.38499999999999995,0.033,1449.36,13.75,0.5058974623680115,0.125,0.021,0,1,1,0,1,1,0,1,1,1
1652282689886683358,1884,1652282689886683358,world,1652282689.8775349,51.245764922350645,-2.4231446720659733,13.051,0.0,-1.2925,-3.377,207.9825,-0.034,-0.011,-0.012,-0.39599999999999996,0.352,0.088,1449.36,13.75,0.5058974623680115,0.125,0.021,0,1,1,0,1,1,0,1,1,1
1652282689906684128,1885,1652282689906684128,world,1652282689.897537,51.245764922350645,-2.4231446720659733,13.051,0.0,-1.2979999999999998,-3.3714999999999997,207.9825,-0.035,-0.008,-0.011,-0.297,-0.022,0.066,1449.36,13.75,0.5058974623680115,0.125,0.021,0,1,1,0,1,1,0,1,1,1
1652282689926683051,1886,1652282689926683051,world,1652282689.9175348,51.245764922350645,-2.4231446720659733,13.051,0.0,-1.3034999999999999,-3.3825,207.9825,-0.035,-0.011,-0.011,0.05499999999999999,-0.38499999999999995,0.044,1449.36,13.75,0.5058974623680115,0.125,0.021,0,1,1,0,1,1,0,1,1,1
1652282689951703413,1887,1652282689951703413,world,1652282689.937537,51.245764922350645,-2.4231446720659733,13.05,0.0,-1.2925,-3.388,207.988,-0.034,-0.013000000000000001,-0.012,1.111,0.27499999999999997,-0.066,1449.36,13.75,0.5058974623680115,0.125,0.021,0,1,1,0,1,1,0,1,1,1
1652282689966699817,1888,1652282689966699817,world,1652282689.957535,51.245764922350645,-2.4231446720659733,13.05,0.0,-1.2925,-3.3825,207.988,-0.035,-0.009000000000000001,-0.013000000000000001,-0.143,0.39599999999999996,-0.044,1449.36,13.75,0.5058974623680115,0.125,0.021,0,1,1,0,1,1,0,1,1,1
1652282689986700369,1889,1652282689986700369,world,1652282689.977537,51.245764922350645,-2.4231446720659733,13.05,0.0,-1.3034999999999999,-3.3825,207.988,-0.036000000000000004,-0.009000000000000001,-0.012,-0.6819999999999999,-0.407,0.0,1449.36,13.75,0.5058974623680115,0.125,0.021,0,1,1,0,1,1,0,1,1,1
1652282690006696396,1890,1652282690006696396,world,1652282689.997535,51.24576496426016,-2.4231446720659733,13.05,0.0,-1.3034999999999999,-3.388,207.988,-0.035,-0.013000000000000001,-0.013000000000000001,0.132,-0.38499999999999995,0.011,1449.36,13.75,0.5058974623680115,0.125,0.021,0,1,1,0,1,1,0,1,1,1
1652282690026699392,1891,1652282690026699392,world,1652282690.0175369,51.24576496426016,-2.4231445882469416,13.049,0.0,-1.2979999999999998,-3.3825,207.9825,-0.034,-0.012,-0.013000000000000001,-0.21999999999999997,0.45099999999999996,0.0,1449.36,13.75,0.5058974623680115,0.125,0.021,0,1,1,0,1,1,0,1,1,1
1652282690051686585,1892,1652282690051686585,world,1652282690.037535,51.24576496426016,-2.4231445882469416,13.049,0.0,-1.2979999999999998,-3.3714999999999997,207.9825,-0.035,-0.009000000000000001,-0.012,-0.39599999999999996,0.066,-0.022,1449.36,13.75,0.5058974623680115,0.125,0.021,0,1,1,0,1,1,0,1,1,1
1652282690071723323,1893,1652282690071723323,world,1652282690.057536,51.24576496426016,-2.4231445882469416,13.049,0.0,-1.3034999999999999,-3.3825,207.9825,-0.035,-0.01,-0.011,0.044,-0.32999999999999996,0.0,1449.36,13.75,0.5058974623680115,0.125,0.021,0,1,1,0,1,1,0,1,1,1
1652282690086689941,1894,1652282690086689941,world,1652282690.0775359,51.24576496426016,-2.4231445882469416,13.048,0.0,-1.2979999999999998,-3.388,207.9825,-0.034,-0.013000000000000001,-0.013000000000000001,1.155,0.264,-0.10999999999999999,1449.36,13.75,0.5058974623680115,0.125,0.021,0,1,1,0,1,1,0,1,1,1
1652282690106693006,1895,1652282690106693006,world,1652282690.0975358,51.24576496426016,-2.4231445882469416,13.048,0.0,-1.2979999999999998,-3.377,207.9825,-0.035,-0.009000000000000001,-0.014,-0.39599999999999996,0.517,-0.033,1449.36,13.75,0.5058974623680115,0.125,0.021,0,1,1,0,1,1,0,1,1,1
1652282690126693260,1896,1652282690126693260,world,1652282690.1175349,51.24576496426016,-2.4231445882469416,13.048,0.0,-1.309,-3.377,207.9825,-0.036000000000000004,-0.009000000000000001,-0.013000000000000001,-0.693,-0.5609999999999999,0.011,1449.36,13.75,0.5058974623680115,0.125,0.021,0,1,1,0,1,1,0,1,1,1
1652282690146680106,1897,1652282690146680106,world,1652282690.137537,51.24576496426016,-2.4231445882469416,13.047,0.0,-1.309,-3.3825,207.9825,-0.035,-0.013000000000000001,-0.013000000000000001,0.033,-0.495,0.066,1449.36,13.75,0.5058974623680115,0.125,0.021,0,1,1,0,1,1,0,1,1,1
1652282690166686847,1898,1652282690166686847,world,1652282690.1575348,51.24576496426016,-2.4231445882469416,13.047,0.0,-1.2979999999999998,-3.377,207.9825,-0.034,-0.011,-0.014,-0.418,0.495,0.077,1449.36,13.75,0.5058974623680115,0.125,0.021,0,1,1,0,1,1,0,1,1,1
1652282690186682193,1899,1652282690186682193,world,1652282690.177537,51.24576500616968,-2.4231445882469416,13.047,0.0,-1.3034999999999999,-3.3659999999999997,207.988,-0.035,-0.01,-0.012,-0.19799999999999998,0.27499999999999997,0.011,1449.36,13.75,0.5058974623680115,0.125,0.021,0,1,1,0,1,1,0,1,1,1
1652282690211682747,1900,1652282690211682747,world,1652282690.197535,51.24576500616968,-2.4231445882469416,13.047,0.0,-1.309,-3.377,207.988,-0.035,-0.011,-0.011,0.077,-0.46199999999999997,0.0,1449.36,13.75,0.5058974623680115,0.125,0.021,0,1,1,0,1,1,0,1,1,1
1652282690226683689,1901,1652282690226683689,world,1652282690.217537,51.24576500616968,-2.4231445882469416,13.046000000000001,0.0,-1.3034999999999999,-3.3825,207.988,-0.034,-0.014,-0.013000000000000001,1.034,0.077,-0.10999999999999999,1449.36,13.75,0.5058974623680115,0.125,0.021,0,1,1,0,1,1,0,1,1,1
1652282690251680209,1902,1652282690251680209,world,1652282690.237535,51.24576500616968,-2.42314450442791,13.046000000000001,0.0,-1.3034999999999999,-3.377,207.9825,-0.034,-0.01,-0.014,-0.27499999999999997,0.46199999999999997,-0.077,1449.36,13.75,0.5058974623680115,0.125,0.021,0,1,1,0,1,1,0,1,1,1
1652282690271781618,1903,1652282690271781618,world,1652282690.257537,51.24576500616968,-2.42314450442791,13.046000000000001,0.0,-1.3145,-3.3714999999999997,207.9825,-0.035,-0.01,-0.013000000000000001,-0.715,-0.45099999999999996,-0.044,1449.36,13.75,0.5058974623680115,0.125,0.021,0,1,1,0,1,1,0,1,1,1
1652282690291685253,1904,1652282690291685253,world,1652282690.277535,51.24576500616968,-2.42314450442791,13.045,0.0,-1.3145,-3.377,207.9825,-0.035,-0.013000000000000001,-0.013000000000000001,0.077,-0.506,0.0,1449.36,13.75,0.5058974623680115,0.125,0.021,0,1,1,0,1,1,0,1,1,1
1652282690316688399,1905,1652282690316688399,world,1652282690.2975368,51.245765215717256,-2.4231442529708147,13.06,0.0,-1.3034999999999999,-3.377,207.9825,-0.038,-0.012,-0.011,-0.34099999999999997,0.297,0.044,1449.36,13.75,0.5058974623680115,0.125,0.021,0,1,1,0,1,1,0,1,1,1
1652282690336685117,1906,1652282690336685117,world,1652282690.317535,51.245765215717256,-2.4231442529708147,13.06,0.0,-1.309,-3.3714999999999997,207.9825,-0.039,-0.01,-0.01,-0.022,0.19799999999999998,0.0,1449.36,13.75,0.5058974623680115,0.125,0.021,0,1,1,0,1,1,0,1,1,1
1652282690351673585,1907,1652282690351673585,world,1652282690.3375368,51.245765215717256,-2.4231442529708147,13.059000000000001,0.0,-1.309,-3.377,207.9825,-0.038,-0.011,-0.01,0.09899999999999999,-0.132,0.022,1449.36,13.75,0.5125584602355957,0.125,0.021,0,1,1,0,1,1,0,1,1,1
1652282690366718079,1908,1652282690366718079,world,1652282690.3575358,51.245765215717256,-2.4231442529708147,13.059000000000001,0.0,-1.3034999999999999,-3.3825,207.9825,-0.037,-0.013000000000000001,-0.011,1.0999999999999999,0.176,-0.05499999999999999,1449.36,13.75,0.5125584602355957,0.125,0.021,0,1,1,0,1,1,0,1,1,1
1652282690386697831,1909,1652282690386697831,world,1652282690.377537,51.24576525762677,-2.4231442529708147,13.059000000000001,0.0,-1.309,-3.3714999999999997,207.9825,-0.037,-0.01,-0.011,-0.363,0.19799999999999998,0.0,1449.36,13.75,0.5125584602355957,0.125,0.021,0,1,1,0,1,1,0,1,1,1
1652282690411686087,1910,1652282690411686087,world,1652282690.397536,51.24576525762677,-2.4231442529708147,13.059000000000001,0.0,-1.3145,-3.377,207.9825,-0.039,-0.01,-0.01,-0.473,-0.594,0.0,1449.36,13.75,0.5125584602355957,0.125,0.021,0,1,1,0,1,1,0,1,1,1
1652282690426688736,1911,1652282690426688736,world,1652282690.417537,51.24576525762677,-2.4231442529708147,13.058,0.0,-1.309,-3.3825,207.9825,-0.038,-0.012,-0.011,-0.187,-0.34099999999999997,0.05499999999999999,1449.36,13.75,0.5125584602355957,0.125,0.021,0,1,1,0,1,1,0,1,1,1
1652282690446679718,1912,1652282690446679718,world,1652282690.4375348,51.24576525762677,-2.4231442529708147,13.058,0.0,-1.3034999999999999,-3.377,207.9825,-0.037,-0.011,-0.011,-0.121,0.46199999999999997,0.05499999999999999,1449.36,13.75,0.5125584602355957,0.125,0.021,0,1,1,0,1,1,0,1,1,1
1652282690466699583,1913,1652282690466699583,world,1652282690.457537,51.24576525762677,-2.423144169151783,13.058,0.0,-1.3034999999999999,-3.3714999999999997,207.9825,-0.038,-0.009000000000000001,-0.011,0.19799999999999998,0.09899999999999999,0.011,1449.36,13.75,0.5125584602355957,0.125,0.021,0,1,1,0,1,1,0,1,1,1
1652282690491684317,1914,1652282690491684317,world,1652282690.477535,51.24576525762677,-2.423144169151783,13.058,0.0,-1.309,-3.377,207.9825,-0.038,-0.01,-0.01,0.10999999999999999,-0.242,0.066,1449.36,13.75,0.5125584602355957,0.125,0.021,0,1,1,0,1,1,0,1,1,1
1652282690511679010,1915,1652282690511679010,world,1652282690.497537,51.24576525762677,-2.423144169151783,13.057,0.0,-1.3034999999999999,-3.3825,207.988,-0.037,-0.013000000000000001,-0.011,1.287,0.209,-0.05499999999999999,1449.36,13.75,0.5125584602355957,0.125,0.021,0,1,1,0,1,1,0,1,1,1
1652282690531714759,1916,1652282690531714759,world,1652282690.517535,51.24576525762677,-2.423144169151783,13.057,0.0,-1.2979999999999998,-3.3714999999999997,207.9825,-0.037,-0.01,-0.011,-0.176,0.16499999999999998,-0.011,1449.36,13.75,0.5125584602355957,0.125,0.021,0,1,1,0,1,1,0,1,1,1
1652282690551681982,1917,1652282690551681982,world,1652282690.5375369,51.24576529953629,-2.423144169151783,13.057,0.0,-1.3034999999999999,-3.377,207.9825,-0.038,-0.009000000000000001,-0.01,-0.5389999999999999,-0.726,-0.011,1449.36,13.75,0.5125584602355957,0.125,0.021,0,1,1,0,1,1,0,1,1,1
1652282690566684406,1918,1652282690566684406,world,1652282690.557536,51.24576529953629,-2.423144169151783,13.056000000000001,0.0,-1.3034999999999999,-3.388,207.9825,-0.038,-0.012,-0.011,-0.253,-0.308,0.022,1449.36,13.75,0.5125584602355957,0.125,0.021,0,1,1,0,1,1,0,1,1,1
1652282690586688094,1919,1652282690586688094,world,1652282690.5775368,51.24576529953629,-2.423144169151783,13.056000000000001,0.0,-1.2925,-3.377,207.9825,-0.036000000000000004,-0.012,-0.012,0.088,0.616,0.0,1449.36,13.75,0.5125584602355957,0.125,0.021,0,1,1,0,1,1,0,1,1,1
1652282690606680607,1920,1652282690606680607,world,1652282690.5975358,51.24576529953629,-2.423144169151783,13.056000000000001,0.0,-1.2979999999999998,-3.377,207.9825,-0.037,-0.009000000000000001,-0.011,0.0,0.05499999999999999,-0.022,1449.36,13.75,0.5125584602355957,0.125,0.021,0,1,1,0,1,1,0,1,1,1
1652282690626682368,1921,1652282690626682368,world,1652282690.617537,51.24576529953629,-2.423144169151783,13.056000000000001,0.0,-1.3034999999999999,-3.3825,207.9825,-0.038,-0.01,-0.01,0.16499999999999998,-0.495,0.0,1449.36,13.75,0.5125584602355957,0.125,0.021,0,1,1,0,1,1,0,1,1,1
1652282690646677454,1922,1652282690646677454,world,1652282690.6375358,51.24576529953629,-2.423144169151783,13.055,0.0,-1.2925,-3.388,207.9825,-0.037,-0.013000000000000001,-0.011,1.067,0.033,-0.05499999999999999,1449.36,13.75,0.5125584602355957,0.125,0.021,0,1,1,0,1,1,0,1,1,1
1652282690666687991,1923,1652282690666687991,world,1652282690.657537,51.24576529953629,-2.4231440853327513,13.055,0.0,-1.2925,-3.3825,207.9825,-0.037,-0.01,-0.012,-0.34099999999999997,0.19799999999999998,0.011,1449.36,13.75,0.5125584602355957,0.125,0.021,0,1,1,0,1,1,0,1,1,1
1652282690686676629,1924,1652282690686676629,world,1652282690.6775348,51.24576529953629,-2.4231440853327513,13.055,0.0,-1.2979999999999998,-3.3825,207.9825,-0.038,-0.009000000000000001,-0.011,-0.6599999999999999,-0.39599999999999996,0.011,1449.36,13.75,0.5125584602355957,0.125,0.021,0,1,1,0,1,1,0,1,1,1
1652282690706680001,1925,1652282690706680001,world,1652282690.697537,51.24576529953629,-2.4231440853327513,13.055,0.0,-1.3034999999999999,-3.388,207.988,-0.038,-0.012,-0.011,-0.363,-0.253,0.05499999999999999,1449.36,13.75,0.5125584602355957,0.125,0.021,0,1,1,0,1,1,0,1,1,1
1652282690726689437,1926,1652282690726689437,world,1652282690.717536,51.245765341445804,-2.4231440853327513,13.054,0.0,-1.2925,-3.3825,207.9825,-0.037,-0.013000000000000001,-0.011,0.187,0.43999999999999995,0.0,1449.36,13.75,0.5125584602355957,0.125,0.021,0,1,1,0,1,1,0,1,1,1
1652282690751681018,1927,1652282690751681018,world,1652282690.737537,51.245765341445804,-2.4231440853327513,13.054,0.0,-1.2925,-3.3825,207.9825,-0.037,-0.01,-0.011,0.0,0.10999999999999999,-0.022,1449.36,13.75,0.5125584602355957,0.125,0.021,0,1,1,0,1,1,0,1,1,1
1652282690766688602,1928,1652282690766688602,world,1652282690.757535,51.245765341445804,-2.4231440853327513,13.054,0.0,-1.3034999999999999,-3.388,207.988,-0.037,-0.011,-0.011,0.066,-0.297,0.033,1449.3899999999999,13.75,0.5125584602355957,0.125,0.021,0,1,1,0,1,1,1,1,1,1
1652282690786682551,1929,1652282690786682551,world,1652282690.7775369,51.245765341445804,-2.4231440853327513,13.053,0.0,-1.2979999999999998,-3.388,207.988,-0.037,-0.014,-0.012,0.825,0.143,-0.022,1449.3899999999999,13.75,0.5125584602355957,0.125,0.021,0,1,1,0,1,1,0,1,1,1
1652282690806680071,1930,1652282690806680071,world,1652282690.797535,51.245765341445804,-2.4231440853327513,13.053,0.0,-1.2925,-3.3825,207.988,-0.037,-0.012,-0.013000000000000001,-0.209,0.297,0.0,1449.3899999999999,13.75,0.5125584602355957,0.125,0.021,0,1,1,0,1,1,0,1,1,1
1652282690826679823,1931,1652282690826679823,world,1652282690.8175368,51.245765341445804,-2.4231440853327513,13.053,0.0,-1.3034999999999999,-3.3825,207.9825,-0.039,-0.01,-0.012,-0.7919999999999999,-0.363,0.0,1449.3899999999999,13.75,0.5125584602355957,0.125,0.021,0,1,1,0,1,1,0,1,1,1
1652282690851678266,1932,1652282690851678266,world,1652282690.8375359,51.245765341445804,-2.4231440853327513,13.053,0.0,-1.309,-3.3825,207.9825,-0.038,-0.013000000000000001,-0.012,-0.6819999999999999,-0.187,0.0,1449.3899999999999,13.75,0.5125584602355957,0.125,0.021,0,1,1,0,1,1,0,1,1,1
1652282690871703432,1933,1652282690871703432,world,1652282690.857537,51.245765341445804,-2.4231440853327513,13.052,0.0,-1.2979999999999998,-3.377,207.9825,-0.037,-0.013000000000000001,-0.013000000000000001,0.27499999999999997,0.5499999999999999,-0.088,1449.3899999999999,13.75,0.5125584602355957,0.125,0.021,0,1,1,0,1,1,0,1,1,1
1652282690896682517,1934,1652282690896682517,world,1652282690.8775349,51.245765341445804,-2.4231440015137196,13.052,0.0,-1.3034999999999999,-3.3714999999999997,207.9825,-0.037,-0.01,-0.011,0.0,0.34099999999999997,-0.05499999999999999,1449.3899999999999,13.75,0.5125584602355957,0.125,0.021,0,1,1,0,1,1,0,1,1,1
1652282690911685543,1935,1652282690911685543,world,1652282690.897537,51.24576538335532,-2.4231440015137196,13.052,0.0,-1.309,-3.377,207.9825,-0.038,-0.011,-0.011,0.066,-0.407,0.011,1449.3899999999999,13.75,0.5125584602355957,0.125,0.021,0,1,1,0,1,1,0,1,1,1
1652282690936689754,1936,1652282690936689754,world,1652282690.917536,51.24576538335532,-2.4231440015137196,13.051,0.0,-1.309,-3.3825,207.9825,-0.037,-0.014,-0.012,0.594,0.09899999999999999,0.0,1449.3899999999999,13.75,0.5125584602355957,0.125,0.021,0,1,1,0,1,1,0,1,1,1
1652282690951692988,1937,1652282690951692988,world,1652282690.937537,51.24576538335532,-2.4231440015137196,13.051,0.0,-1.309,-3.3714999999999997,207.9825,-0.036000000000000004,-0.011,-0.013000000000000001,-0.46199999999999997,0.39599999999999996,0.033,1449.3899999999999,13.75,0.5125584602355957,0.125,0.021,0,1,1,0,1,1,0,1,1,1
1652282690966714370,1938,1652282690966714370,world,1652282690.957536,51.24576538335532,-2.4231440015137196,13.051,0.0,-1.3145,-3.3714999999999997,207.9825,-0.038,-0.01,-0.012,-0.605,-0.32999999999999996,0.044,1449.3899999999999,13.75,0.5125584602355957,0.125,0.021,0,1,1,0,1,1,0,1,1,1
1652282690991692331,1939,1652282690991692331,world,1652282690.977537,51.24576538335532,-2.4231440015137196,13.051,0.0,-1.3199999999999998,-3.377,207.9825,-0.037,-0.012,-0.012,-0.583,-0.38499999999999995,0.05499999999999999,1449.3899999999999,13.75,0.5125584602355957,0.125,0.021,0,1,1,0,1,1,0,1,1,1
1652282691011691274,1940,1652282691011691274,world,1652282690.997536,51.24576538335532,-2.4231440015137196,13.05,0.0,-1.309,-3.3714999999999997,207.9825,-0.036000000000000004,-0.013000000000000001,-0.012,0.374,0.528,-0.066,1449.3899999999999,13.75,0.5125584602355957,0.125,0.021,0,1,1,0,1,1,0,1,1,1
1652282691026734815,1941,1652282691026734815,world,1652282691.0175369,51.24576538335532,-2.4231440015137196,13.05,0.0,-1.3145,-3.3659999999999997,207.9825,-0.037,-0.01,-0.012,0.033,0.429,-0.05499999999999999,1449.3899999999999,13.75,0.5125584602355957,0.125,0.021,0,1,1,0,1,1,0,1,1,1
1652282691051688703,1942,1652282691051688703,world,1652282691.037536,51.24576538335532,-2.4231440015137196,13.05,0.0,-1.3199999999999998,-3.3714999999999997,207.9825,-0.037,-0.01,-0.011,0.21999999999999997,-0.34099999999999997,-0.022,1449.3899999999999,13.75,0.5125584602355957,0.125,0.021,0,1,1,0,1,1,0,1,1,1
1652282691066690392,1943,1652282691066690392,world,1652282691.0575368,51.245765425264835,-2.4231440015137196,13.049,0.0,-1.3145,-3.377,207.9825,-0.037,-0.013000000000000001,-0.012,0.627,-0.077,-0.033,1449.3899999999999,13.75,0.5125584602355957,0.125,0.021,0,1,1,0,1,1,0,1,1,1
1652282691086737704,1944,1652282691086737704,world,1652282691.0775359,51.245765425264835,-2.423143917694688,13.049,0.0,-1.3145,-3.3714999999999997,207.9825,-0.036000000000000004,-0.01,-0.012,-0.45099999999999996,0.319,0.011,1449.3899999999999,13.75,0.5125584602355957,0.125,0.021,0,1,1,0,1,1,0,1,1,1
1652282691111706218,1945,1652282691111706218,world,1652282691.097537,51.245765425264835,-2.423143917694688,13.049,0.0,-1.3199999999999998,-3.3659999999999997,207.9825,-0.038,-0.01,-0.012,-0.38499999999999995,-0.27499999999999997,0.022,1449.3899999999999,13.75,0.5125584602355957,0.125,0.021,0,1,1,0,1,1,0,1,1,1
1652282691126693376,1946,1652282691126693376,world,1652282691.1175349,51.245765425264835,-2.423143917694688,13.049,0.0,-1.3145,-3.3714999999999997,207.9825,-0.037,-0.012,-0.012,-0.10999999999999999,-0.308,0.011,1449.3899999999999,13.75,0.5125584602355957,0.125,0.021,0,1,1,0,1,1,0,1,1,1
1652282691146690576,1947,1652282691146690576,world,1652282691.137537,51.245765425264835,-2.423143917694688,13.048,0.0,-1.309,-3.3714999999999997,207.9825,-0.036000000000000004,-0.012,-0.013000000000000001,0.374,0.517,-0.066,1449.3899999999999,13.75,0.5125584602355957,0.125,0.021,0,1,1,0,1,1,0,1,1,1
1652282691171758136,1948,1652282691171758136,world,1652282691.157536,51.245765425264835,-2.423143917694688,13.048,0.0,-1.309,-3.3659999999999997,207.9825,-0.036000000000000004,-0.009000000000000001,-0.011,0.077,0.374,-0.066,1449.3899999999999,13.75,0.5125584602355957,0.125,0.021,0,1,1,0,1,1,0,1,1,1
1652282691186692666,1949,1652282691186692666,world,1652282691.177537,51.245765425264835,-2.423143917694688,13.048,0.0,-1.3145,-3.377,207.9825,-0.037,-0.009000000000000001,-0.011,0.143,-0.594,0.033,1449.3899999999999,13.75,0.5125584602355957,0.125,0.021,0,1,1,0,1,1,0,1,1,1
1652282691206688884,1950,1652282691206688884,world,1652282691.197536,51.245765425264835,-2.423143917694688,13.047,0.0,-1.309,-3.3825,207.9825,-0.036000000000000004,-0.013000000000000001,-0.012,0.7699999999999999,-0.16499999999999998,0.033,1449.3899999999999,13.75,0.5125584602355957,0.125,0.021,0,1,1,0,1,1,0,1,1,1
1652282691226712063,1951,1652282691226712063,world,1652282691.217537,51.245765425264835,-2.423143917694688,13.047,0.0,-1.3034999999999999,-3.3714999999999997,207.9825,-0.036000000000000004,-0.01,-0.013000000000000001,-0.594,0.363,0.10999999999999999,1449.3899999999999,13.75,0.5125584602355957,0.125,0.021,0,1,1,0,1,1,0,1,1,1
1652282691251686406,1952,1652282691251686406,world,1652282691.237536,51.24576546717435,-2.423143917694688,13.047,0.0,-1.309,-3.3714999999999997,207.988,-0.037,-0.01,-0.011,-0.46199999999999997,-0.363,0.088,1449.3899999999999,13.75,0.5125584602355957,0.125,0.021,0,1,1,0,1,1,0,1,1,1
1652282691266713559,1953,1652282691266713559,world,1652282691.257537,51.24576546717435,-2.423143917694688,13.047,0.0,-1.309,-3.3825,207.988,-0.036000000000000004,-0.012,-0.011,0.077,-0.473,0.022,1449.3899999999999,13.75,0.5125584602355957,0.125,0.021,0,1,1,0,1,1,0,1,1,1
1652282691286692040,1954,1652282691286692040,world,1652282691.277536,51.24576546717435,-2.423143917694688,13.046000000000001,0.0,-1.2979999999999998,-3.388,207.988,-0.035,-0.013000000000000001,-0.012,0.594,0.473,-0.088,1449.3899999999999,13.75,0.5125584602355957,0.125,0.021,0,1,1,0,1,1,0,1,1,1
1652282691316707077,1955,1652282691316707077,world,1652282691.2975368,51.24576597008854,-2.4231430795043707,13.061,0.0,-1.2979999999999998,-3.377,207.9825,-0.042,-0.011,-0.01,0.022,0.39599999999999996,-0.143,1449.3899999999999,13.75,0.5125584602355957,0.125,0.021,0,1,1,0,1,1,0,1,1,1
1652282691336691037,1956,1652282691336691037,world,1652282691.3175359,51.24576597008854,-2.4231430795043707,13.061,0.0,-1.3034999999999999,-3.3825,207.9825,-0.042,-0.011,-0.009000000000000001,-0.09899999999999999,-0.506,-0.077,1449.3899999999999,13.75,0.5125584602355957,0.125,0.021,0,1,1,0,1,1,0,1,1,1
1652282691346685356,1957,1652282691346685356,world,1652282691.3375368,51.24576597008854,-2.4231430795043707,13.061,0.0,-1.3034999999999999,-3.3935,207.9825,-0.042,-0.014,-0.01,0.583,-0.308,-0.022,1449.3899999999999,13.75,0.5340564846992493,0.125,0.021,0,1,1,0,1,1,0,1,1,1
1652282691376698516,1958,1652282691376698516,world,1652282691.3575358,51.24576597008854,-2.4231430795043707,13.06,0.0,-1.2925,-3.3825,207.9825,-0.042,-0.012,-0.011,-0.506,0.32999999999999996,0.044,1449.3899999999999,13.75,0.5340564846992493,0.125,0.021,0,1,1,0,1,1,0,1,1,1
1652282691391686323,1959,1652282691391686323,world,1652282691.377537,51.24576597008854,-2.4231430795043707,13.06,0.0,-1.2979999999999998,-3.377,207.9825,-0.042,-0.01,-0.009000000000000001,-0.583,0.0,0.05499999999999999,1449.3899999999999,13.75,0.5340564846992493,0.125,0.021,0,1,1,0,1,1,0,1,1,1
1652282691406676146,1960,1652282691406676146,world,1652282691.397536,51.24576601199806,-2.423142995685339,13.06,0.0,-1.3034999999999999,-3.388,207.9825,-0.042,-0.012,-0.01,-0.077,-0.308,0.033,1449.3899999999999,13.75,0.5340564846992493,0.125,0.021,0,1,1,0,1,1,0,1,1,1
1652282691426686037,1961,1652282691426686037,world,1652282691.417537,51.24576601199806,-2.423142995685339,13.059000000000001,0.0,-1.2925,-3.388,207.9825,-0.041,-0.013000000000000001,-0.01,0.7809999999999999,0.418,-0.033,1449.3899999999999,13.75,0.5340564846992493,0.125,0.021,0,1,1,0,1,1,0,1,1,1
1652282691446679960,1962,1652282691446679960,world,1652282691.4375348,51.24576601199806,-2.423142995685339,13.059000000000001,0.0,-1.2925,-3.3825,207.9825,-0.041,-0.01,-0.01,0.05499999999999999,0.39599999999999996,-0.033,1449.3899999999999,13.75,0.5340564846992493,0.125,0.021,0,1,1,0,1,1,0,1,1,1
1652282691466697446,1963,1652282691466697446,world,1652282691.457537,51.24576601199806,-2.423142995685339,13.059000000000001,0.0,-1.3034999999999999,-3.3825,207.988,-0.042,-0.01,-0.009000000000000001,-0.09899999999999999,-0.38499999999999995,0.033,1449.3899999999999,13.75,0.5340564846992493,0.125,0.021,0,1,1,0,1,1,0,1,1,1
1652282691486680491,1964,1652282691486680491,world,1652282691.477536,51.24576601199806,-2.423142995685339,13.059000000000001,0.0,-1.2979999999999998,-3.388,207.988,-0.042,-0.014,-0.01,0.6709999999999999,-0.308,0.044,1449.3899999999999,13.75,0.5340564846992493,0.125,0.021,0,1,1,0,1,1,0,1,1,1
1652282691506679984,1965,1652282691506679984,world,1652282691.497537,51.24576601199806,-2.423142995685339,13.058,0.0,-1.2925,-3.3825,207.988,-0.041,-0.012,-0.011,-0.6709999999999999,0.43999999999999995,0.09899999999999999,1449.3899999999999,13.75,0.5340564846992493,0.125,0.021,0,1,1,0,1,1,0,1,1,1
1652282691531692082,1966,1652282691531692082,world,1652282691.517536,51.24576601199806,-2.423142995685339,13.058,0.0,-1.2979999999999998,-3.377,207.988,-0.042,-0.01,-0.01,-0.495,0.154,0.044,1449.3899999999999,13.75,0.5340564846992493,0.125,0.021,0,1,1,0,1,1,0,1,1,1
1652282691566685974,1967,1652282691566685974,world,1652282691.5375369,51.24576605390757,-2.423142995685339,13.058,0.0,-1.3034999999999999,-3.3825,207.988,-0.041,-0.013000000000000001,-0.009000000000000001,-0.121,-0.27499999999999997,0.0,1449.3899999999999,13.75,0.5340564846992493,0.125,0.021,0,1,1,0,1,1,0,1,1,1
1652282691576687563,1968,1652282691576687563,world,1652282691.557536,51.24576605390757,-2.423142995685339,13.058,0.0,-1.2925,-3.388,207.988,-0.04,-0.015,-0.01,0.8909999999999999,0.209,-0.09899999999999999,1449.3899999999999,13.75,0.5340564846992493,0.125,0.021,0,1,1,0,1,1,0,1,1,1
1652282691596684756,1969,1652282691596684756,world,1652282691.5775368,51.24576605390757,-2.423142995685339,13.057,0.0,-1.2979999999999998,-3.3825,207.9825,-0.041,-0.011,-0.01,0.033,0.297,-0.09899999999999999,1449.3899999999999,13.75,0.5340564846992493,0.125,0.021,0,1,1,0,1,1,0,1,1,1
1652282691606671536,1970,1652282691606671536,world,1652282691.5975358,51.24576605390757,-2.4231429118663073,13.057,0.0,-1.3034999999999999,-3.3825,207.988,-0.041,-0.011,-0.01,-0.38499999999999995,-0.38499999999999995,-0.022,1449.3899999999999,13.75,0.5340564846992493,0.125,0.021,0,1,1,0,1,1,0,1,1,1
1652282691626687438,1971,1652282691626687438,world,1652282691.617537,51.24576605390757,-2.4231429118663073,13.057,0.0,-1.3034999999999999,-3.388,207.988,-0.041,-0.015,-0.01,0.23099999999999998,-0.154,0.0,1449.3899999999999,13.75,0.5340564846992493,0.125,0.021,0,1,1,0,1,1,0,1,1,1
1652282691646681038,1972,1652282691646681038,world,1652282691.6375358,51.24576605390757,-2.4231429118663073,13.057,0.0,-1.2979999999999998,-3.3825,207.9825,-0.041,-0.013000000000000001,-0.011,-0.32999999999999996,0.319,0.0,1449.3899999999999,13.75,0.5340564846992493,0.125,0.021,0,1,1,0,1,1,0,1,1,1
1652282691666702523,1973,1652282691666702523,world,1652282691.657538,51.24576605390757,-2.4231429118663073,13.056000000000001,0.0,-1.3034999999999999,-3.377,207.9825,-0.042,-0.011,-0.01,-0.429,-0.088,0.0,1449.3899999999999,13.75,0.5340564846992493,0.125,0.021,0,1,1,0,1,1,0,1,1,1
1652282691686686890,1974,1652282691686686890,world,1652282691.677536,51.24576605390757,-2.4231429118663073,13.056000000000001,0.0,-1.309,-3.388,207.9825,-0.042,-0.012,-0.01,-0.121,-0.27499999999999997,-0.033,1449.3899999999999,13.75,0.5340564846992493,0.125,0.021,0,1,1,0,1,1,0,1,1,1
1652282691706680928,1975,1652282691706680928,world,1652282691.697538,51.24576609581709,-2.4231429118663073,13.056000000000001,0.0,-1.2979999999999998,-3.3825,207.9825,-0.041,-0.013000000000000001,-0.011,0.847,0.5499999999999999,-0.121,1449.3899999999999,13.75,0.5340564846992493,0.125,0.021,0,1,1,0,1,1,0,1,1,1
1652282691726691408,1976,1652282691726691408,world,1652282691.717536,51.24576609581709,-2.4231429118663073,13.056000000000001,0.0,-1.2979999999999998,-3.377,207.9825,-0.041,-0.01,-0.011,-0.022,0.495,-0.09899999999999999,1449.3899999999999,13.75,0.5340564846992493,0.125,0.021,0,1,1,0,1,1,0,1,1,1
1652282691746682429,1977,1652282691746682429,world,1652282691.737537,51.24576609581709,-2.4231429118663073,13.055,0.0,-1.309,-3.377,207.9825,-0.042,-0.009000000000000001,-0.01,-0.319,-0.484,0.011,1449.3899999999999,13.75,0.5340564846992493,0.125,0.021,0,1,1,0,1,1,0,1,1,1
1652282691771738185,1978,1652282691771738185,world,1652282691.757536,51.24576609581709,-2.4231429118663073,13.055,0.0,-1.309,-3.3825,207.9825,-0.042,-0.013000000000000001,-0.01,0.066,-0.418,0.088,1449.3,13.75,0.5340564846992493,0.125,0.021,0,1,1,0,1,1,1,1,1,1
1652282691791686373,1979,1652282691791686373,world,1652282691.7775369,51.24576609581709,-2.4231428280472755,13.055,0.0,-1.2979999999999998,-3.377,207.9825,-0.041,-0.011,-0.012,-0.352,0.297,0.121,1449.3,13.75,0.5340564846992493,0.125,0.021,0,1,1,0,1,1,0,1,1,1
1652282691806682355,1980,1652282691806682355,world,1652282691.797536,51.24576609581709,-2.4231428280472755,13.055,0.0,-1.3034999999999999,-3.3714999999999997,207.9825,-0.041,-0.009000000000000001,-0.011,-0.308,0.143,0.154,1449.3,13.75,0.5340564846992493,0.125,0.021,0,1,1,0,1,1,0,1,1,1
1652282691826692535,1981,1652282691826692535,world,1652282691.8175368,51.24576609581709,-2.4231428280472755,13.054,0.0,-1.309,-3.377,207.988,-0.041,-0.011,-0.01,-0.09899999999999999,-0.209,0.121,1449.3,13.75,0.5340564846992493,0.125,0.021,0,1,1,0,1,1,0,1,1,1
1652282691846679508,1982,1652282691846679508,world,1652282691.8375359,51.245766137726605,-2.4231428280472755,13.054,0.0,-1.3034999999999999,-3.3825,207.988,-0.04,-0.014,-0.01,1.067,0.16499999999999998,-0.033,1449.3,13.75,0.5340564846992493,0.125,0.021,0,1,1,0,1,1,0,1,1,1
